City_ID,City,Lat,Lng,Max Temp,Humidity,Cloudiness,Wind Speed,Country,Date
0,Port-aux-Français,-49.35,70.2167,43.03,95.0,96.0,16.69,TF,1735932993.0
1,Grytviken,-54.2811,-36.5092,48.27,82.0,100.0,10.07,GS,1735932994.0
2,Blackmans Bay,-43.0167,147.3167,57.33,91.0,75.0,3.89,AU,1735932995.0
3,Griffith,41.5284,-87.4237,25.84,62.0,75.0,11.5,US,1735932708.0
4,Cabo San Lucas,22.8909,-109.9124,79.11,50.0,0.0,6.91,MX,1735932997.0
5,Bangui,4.3612,18.555,79.03,23.0,99.0,2.71,CF,1735932999.0
6,Masterton,-40.9597,175.6575,53.28,97.0,100.0,14.29,NZ,1735933000.0
7,Corumbá,-19.0092,-57.6533,76.91,94.0,40.0,3.44,BR,1735933001.0
8,Lobujya,27.95,86.8167,12.09,20.0,1.0,16.62,NP,1735933002.0
9,Avarua,-21.2078,-159.775,84.25,84.0,20.0,8.05,CK,1735933003.0
10,Cologne,50.9333,6.95,37.06,89.0,75.0,14.97,DE,1735932955.0
11,Codrington,-38.2667,141.9667,61.2,45.0,93.0,6.33,AU,1735933005.0
12,Borzya,50.3833,116.5167,-17.72,99.0,68.0,2.71,RU,1735932829.0
13,College,64.8569,-147.8028,-31.05,68.0,0.0,3.44,US,1735933007.0
14,Homer,59.6425,-151.5483,26.49,56.0,100.0,6.91,US,1735933008.0
15,Hays,30.0502,-98.0336,61.3,85.0,100.0,6.82,US,1735933010.0
16,Ribeira Grande,38.5167,-28.7,64.8,88.0,75.0,18.41,PT,1735933011.0
17,Papatowai,-46.5619,169.4708,50.5,85.0,95.0,12.17,NZ,1735933012.0
18,Thompson,55.7435,-97.8558,-16.44,69.0,0.0,8.05,CA,1735933013.0
19,Ilulissat,69.2167,-51.1,32.02,86.0,75.0,6.91,GL,1735933014.0
20,Port Alfred,-33.5906,26.891,78.19,96.0,33.0,1.01,ZA,1735933015.0
21,Saint-Philippe,-21.3585,55.7679,77.47,75.0,77.0,7.9,RE,1735933016.0
22,Punto Fijo,11.6956,-70.1996,83.5,67.0,99.0,21.21,VE,1735933017.0
23,Kīevka,50.2619,71.5514,23.88,93.0,46.0,14.9,KZ,1735933018.0
24,Atafu Village,-8.5421,-172.5159,82.9,76.0,100.0,15.52,TK,1735933019.0
25,Waitangi,-43.9535,-176.5597,59.83,98.0,50.0,4.0,NZ,1735933020.0
26,Howard Springs,-12.497,131.047,75.11,91.0,93.0,4.7,AU,1735933022.0
27,Bilibino,68.0546,166.4372,-1.95,97.0,96.0,5.86,RU,1735933023.0
28,Hammerfest,70.6634,23.6821,16.25,79.0,20.0,3.44,NO,1735932790.0
29,Alaghsas,17.0187,8.0168,75.22,13.0,0.0,8.86,NE,1735933025.0
30,Fortuna,40.5982,-124.1573,54.93,97.0,20.0,1.99,US,1735933026.0
31,Salekhard,66.53,66.6019,-1.88,98.0,100.0,9.33,RU,1735933027.0
32,Kalmunai,7.4167,81.8167,76.55,77.0,88.0,9.44,LK,1735933028.0
33,Gizo Government Station,-8.103,156.8419,82.18,73.0,99.0,2.3,SB,1735933030.0
34,Libreville,0.3925,9.4537,82.42,83.0,20.0,8.05,GA,1735933031.0
35,Sydney Mines,46.2367,-60.2177,32.31,80.0,100.0,13.8,CA,1735933032.0
36,Uliastai,47.7417,96.8444,-1.98,95.0,93.0,6.91,MN,1735933033.0
37,Aykhal,66.0,111.5,-23.73,100.0,100.0,7.07,RU,1735933034.0
38,Emerald,-23.5333,148.1667,66.34,92.0,35.0,8.19,AU,1735933035.0
39,Dryden,49.7833,-92.7503,-3.71,71.0,40.0,12.66,CA,1735932823.0
40,Stanley,54.868,-1.6985,27.52,95.0,0.0,1.14,GB,1735933037.0
41,Puerto Natales,-51.7236,-72.4875,64.85,42.0,40.0,20.71,CL,1735933038.0
42,,,,,,,,,
43,Iqaluit,63.7506,-68.5145,26.33,92.0,100.0,0.0,CA,1735933041.0
44,,,,,,,,,
45,Adamstown,-25.066,-130.1015,74.97,75.0,97.0,5.53,PN,1735933043.0
46,,,,,,,,,
47,Bethel,41.3712,-73.414,35.94,55.0,100.0,9.22,US,1735933045.0
48,Lā‘ie,21.6477,-157.9253,80.06,78.0,38.0,4.0,US,1735932920.0
49,Lebu,-37.6167,-73.65,64.99,77.0,0.0,14.97,CL,1735933047.0
50,,,,,,,,,
51,Fish Town,5.1964,-7.8756,77.02,85.0,43.0,4.94,LR,1735933050.0
52,Brandywine,38.6968,-76.8477,44.13,58.0,100.0,18.41,US,1735933051.0
53,Kavaratti,10.5669,72.642,81.07,66.0,18.0,6.26,IN,1735933052.0
54,El Charco,2.4769,-78.1105,82.42,83.0,91.0,7.47,CO,1735933053.0
55,Yorkton,51.2167,-102.4677,-11.36,77.0,75.0,8.05,CA,1735933054.0
56,Kashgar,39.4547,75.9797,27.61,68.0,20.0,6.71,CN,1735933055.0
57,Ciudad Acuña,29.3232,-100.9522,59.58,82.0,100.0,8.05,MX,1735933056.0
58,George Town,5.4112,100.3354,80.53,78.0,20.0,8.05,MY,1735932890.0
59,El Calafate,-50.3408,-72.2768,62.96,48.0,4.0,10.22,AR,1735933059.0
60,Roboré,-18.3333,-59.75,87.89,74.0,75.0,4.61,BO,1735933060.0
61,Whitehorse,60.7161,-135.0538,-19.43,75.0,75.0,4.61,CA,1735933061.0
62,Enewetak,11.3474,162.3373,80.11,81.0,100.0,17.34,MH,1735933063.0
63,,,,,,,,,
64,Qaqortoq,60.7167,-46.0333,18.88,86.0,53.0,6.6,GL,1735933065.0
65,Saldanha,-33.0117,17.9442,66.25,89.0,0.0,18.7,ZA,1735933066.0
66,Puerto Armuelles,8.2833,-82.8667,80.1,80.0,93.0,7.0,PA,1735933062.0
67,Boa Vista,2.8197,-60.6733,87.78,58.0,75.0,19.57,BR,1735933048.0
68,Hermanus,-34.4187,19.2345,69.8,90.0,12.0,7.94,ZA,1735933069.0
69,Coahuayana de Hidalgo,18.7,-103.6583,86.7,49.0,27.0,7.18,MX,1735933070.0
70,Ha'il,27.5219,41.6907,46.42,46.0,0.0,2.3,SA,1735933072.0
71,Taltal,-25.4,-70.4833,69.08,73.0,100.0,7.45,CL,1735933073.0
72,Jamestown,42.097,-79.2353,26.24,86.0,100.0,14.97,US,1735933074.0
73,Vila Franca do Campo,37.7167,-25.4333,64.89,99.0,88.0,17.34,PT,1735933075.0
74,Dalandzadgad,43.5708,104.425,17.08,54.0,100.0,6.64,MN,1735933076.0
75,Synel'nykove,48.3204,35.5179,40.3,87.0,100.0,10.25,UA,1735933077.0
76,Edinburgh of the Seven Seas,-37.0676,-12.3116,57.02,65.0,20.0,16.6,SH,1735933078.0
77,Udachny,66.4167,112.4,-25.55,99.0,100.0,5.7,RU,1735933079.0
78,Vilyuchinsk,52.9306,158.4028,37.67,96.0,100.0,10.63,RU,1735933080.0
79,Alice Springs,-23.7,133.8833,72.95,17.0,0.0,9.22,AU,1735933081.0
80,Ushuaia,-54.8,-68.3,53.26,58.0,75.0,34.52,AR,1735933082.0
81,Igarka,67.4667,86.5833,1.13,96.0,93.0,9.28,RU,1735933084.0
82,Yellowknife,62.456,-114.3525,-22.45,76.0,75.0,6.91,CA,1735933085.0
83,Tirebolu,41.0069,38.8139,49.23,50.0,0.0,7.47,TR,1735933086.0
84,,,,,,,,,
85,Stony Plain,53.5334,-114.0021,-0.58,83.0,100.0,5.75,CA,1735933088.0
86,Saipan,15.1355,145.701,81.3,83.0,75.0,9.22,MP,1735932803.0
87,Rongelap,11.1635,166.8941,81.18,78.0,100.0,21.12,MH,1735933090.0
88,Tiksi,71.6872,128.8694,-32.33,97.0,46.0,7.4,RU,1735933091.0
89,Albany,42.6001,-73.9662,33.58,52.0,34.0,4.0,US,1735932880.0
90,Karibib,-21.9333,15.8333,68.14,55.0,100.0,7.05,NA,1735933093.0
91,Ulladulla,-35.35,150.4667,64.04,83.0,3.0,7.0,AU,1735932943.0
92,Utrik,11.2278,169.8474,79.93,80.0,100.0,17.16,MH,1735933096.0
93,Petropavlovsk-Kamchatskiy,53.0452,158.6483,36.19,60.0,75.0,8.95,RU,1735933097.0
94,Eldorado at Santa Fe,35.5264,-105.9347,56.28,29.0,0.0,11.01,US,1735933098.0
95,São José da Coroa Grande,-8.8978,-35.1478,81.63,70.0,91.0,9.93,BR,1735933099.0
96,Lihue,21.9789,-159.3672,74.73,78.0,0.0,6.91,US,1735933100.0
97,Isafjordur,66.0755,-23.124,21.97,90.0,88.0,7.18,IS,1735933101.0
98,São João da Barra,-21.6403,-41.0511,86.09,86.0,10.0,13.8,BR,1735933040.0
99,Puerto Baquerizo Moreno,-0.9,-89.6,79.79,74.0,40.0,18.41,EC,1735933103.0
100,Saint Paul Harbor,57.79,-152.4072,31.51,80.0,100.0,12.66,US,1735933104.0
101,Mount Gambier,-37.8333,140.7667,57.92,54.0,43.0,3.49,AU,1735933105.0
102,Raja,8.4596,25.678,73.99,23.0,98.0,3.49,SS,1735933107.0
103,Hadibu,12.65,54.0333,72.27,62.0,20.0,19.28,YE,1735933108.0
104,Sompeta,18.9333,84.6,64.53,74.0,51.0,3.6,IN,1735933109.0
105,Sitka,57.0531,-135.33,37.29,75.0,75.0,6.91,US,1735933110.0
106,Lucapa,-8.4192,20.7447,65.82,89.0,100.0,0.58,AO,1735933111.0
107,Invercargill,-46.4,168.35,53.02,87.0,96.0,7.0,NZ,1735933112.0
108,Melo,-32.3667,-54.1833,84.56,24.0,0.0,16.84,UY,1735933113.0
109,Brownfield,33.1812,-102.2744,56.39,39.0,0.0,11.77,US,1735933114.0
110,Lompoc,34.6391,-120.4579,62.53,71.0,0.0,11.5,US,1735933115.0
111,Rome,43.2128,-75.4557,30.69,71.0,100.0,17.27,US,1735932964.0
112,Voinjama,8.4219,-9.7478,73.58,30.0,3.0,2.51,LR,1735933117.0
113,Hasaki,35.7333,140.8333,45.3,80.0,100.0,22.44,JP,1735933119.0
114,Kralendijk,12.15,-68.2667,84.18,74.0,20.0,16.11,BQ,1735933120.0
115,Mocímboa,-11.3167,40.35,76.5,89.0,74.0,5.48,MZ,1735933121.0
116,,,,,,,,,
117,Skellefteå,64.7507,20.9528,7.0,100.0,40.0,3.44,SE,1735933123.0
118,Korla,41.7597,86.1469,16.34,82.0,21.0,6.04,CN,1735933124.0
119,Susuman,62.7833,148.1667,-4.05,95.0,100.0,4.83,RU,1735933125.0
120,Shantobe,52.4581,68.1839,24.73,90.0,11.0,15.61,KZ,1735933126.0
121,Tarinkot,32.6268,65.8733,34.74,94.0,100.0,5.93,AF,1735933127.0
122,West Island,-12.1568,96.8225,80.58,78.0,20.0,11.5,CC,1735933128.0
123,Barranca,-10.75,-77.7667,73.6,73.0,72.0,11.01,PE,1735933130.0
124,Klyuchi,52.2667,79.1667,30.45,95.0,100.0,16.87,RU,1735933131.0
125,Fale old settlement,-9.3852,-171.2468,81.19,80.0,100.0,10.38,TK,1735933132.0
126,Yuanping,38.7153,112.7575,23.36,30.0,1.0,1.14,CN,1735933133.0
127,Kiunga,-6.1219,141.2906,73.98,100.0,100.0,2.44,PG,1735933134.0
128,Pisco,-13.7,-76.2167,73.45,78.0,0.0,10.36,PE,1735933135.0
129,Meximieux,45.9084,5.1953,36.79,92.0,100.0,6.78,FR,1735933136.0
130,Margaret River,-33.95,115.0667,51.39,88.0,0.0,7.18,AU,1735933137.0
131,Gijang,35.2442,129.2139,22.73,53.0,6.0,4.99,KR,1735933138.0
132,Aasiaat,68.7098,-52.8699,30.02,97.0,100.0,8.37,GL,1735933139.0
133,,,,,,,,,
134,Bredasdorp,-34.5322,20.0403,67.91,87.0,0.0,6.33,ZA,1735933142.0
135,Medjez el Bab,36.6496,9.6123,54.32,83.0,44.0,6.82,TN,1735933143.0
136,Akureyri,65.6835,-18.0878,8.53,92.0,40.0,2.3,IS,1735933144.0
137,Viedma,-40.8135,-62.9967,75.0,30.0,6.0,13.2,AR,1735933145.0
138,Nova Sintra,14.8667,-24.7167,75.15,67.0,0.0,17.96,CV,1735933146.0
139,Malanje,-9.5402,16.341,64.18,94.0,99.0,3.18,AO,1735933147.0
140,Palangkaraya,-2.2,113.8333,74.32,98.0,100.0,2.51,ID,1735933148.0
141,Tôlanaro,-25.0319,46.9987,80.67,83.0,20.0,18.41,MG,1735933150.0
142,Tsiroanomandidy,-18.7667,46.0333,73.38,79.0,100.0,2.37,MG,1735933151.0
143,Federal,-30.9547,-58.7833,96.42,13.0,17.0,18.16,AR,1735933152.0
144,Illizi,26.4833,8.4667,50.86,61.0,73.0,9.06,DZ,1735933153.0
145,Fengcheng,40.4536,124.0717,18.54,42.0,0.0,0.2,CN,1735933154.0
146,Port Elizabeth,-33.918,25.5701,77.31,98.0,75.0,6.91,ZA,1735933155.0
147,Erenhot,43.6475,111.9767,13.93,76.0,13.0,9.84,CN,1735933156.0
148,Puerto Ayora,-0.7393,-90.3518,76.6,82.0,59.0,11.43,EC,1735933157.0
149,Wailua Homesteads,22.0669,-159.378,74.12,90.0,0.0,6.91,US,1735933158.0
150,Nemuro,43.3236,145.575,19.51,75.0,3.0,13.78,JP,1735933160.0
151,Nova Viçosa,-17.8919,-39.3719,79.84,75.0,100.0,13.82,BR,1735933161.0
152,Olonkinbyen,70.9221,-8.7187,19.96,82.0,100.0,26.73,SJ,1735933162.0
153,Mo i Rana,66.3128,14.1428,10.87,92.0,100.0,0.0,NO,1735933163.0
154,Torit,4.4133,32.5678,84.42,28.0,78.0,7.16,SS,1735933164.0
155,Egilsstadir,65.2653,-14.3948,8.51,85.0,75.0,5.75,IS,1735933165.0
156,Brookings,44.3114,-96.7984,15.46,70.0,40.0,11.5,US,1735932546.0
157,Arafat,39.0344,44.6198,24.31,44.0,0.0,4.72,IR,1735933167.0
158,Kota Bharu,6.1333,102.2386,78.75,88.0,40.0,3.44,MY,1735933168.0
159,Taoudenni,22.6783,-3.9836,59.2,26.0,0.0,11.27,ML,1735933169.0
160,Hawaiian Paradise Park,19.5933,-154.9731,74.88,86.0,0.0,4.61,US,1735933170.0
161,Mili,6.0815,171.735,81.45,78.0,99.0,15.82,MH,1735933172.0
162,Vadsø,70.0744,29.7487,15.96,86.0,40.0,11.5,NO,1735933173.0
163,Anadyr,64.75,177.4833,1.9,85.0,0.0,8.95,RU,1735933174.0
164,Talnakh,69.4865,88.3972,3.45,97.0,98.0,5.66,RU,1735933175.0
165,Mahina,-17.5065,-149.489,80.37,78.0,75.0,12.66,PF,1735933176.0
166,Bac Lieu,9.285,105.7244,77.77,83.0,100.0,2.01,VN,1735933177.0
167,Khovd,48.0056,91.6419,1.38,74.0,45.0,4.99,MN,1735933178.0
168,Ndélé,8.4109,20.6473,76.78,19.0,83.0,4.45,CF,1735933180.0
169,Kenai,60.5544,-151.2583,-0.35,92.0,0.0,4.61,US,1735933181.0
170,Uturoa,-16.7333,-151.4333,80.44,79.0,61.0,16.49,PF,1735933182.0
171,Pionerskiy,54.9508,20.2275,31.84,67.0,44.0,40.15,RU,1735933183.0
172,Brisas Barra de Suchiate,14.55,-92.2167,82.72,64.0,96.0,6.35,MX,1735933184.0
173,Tangalle,6.024,80.7911,73.49,83.0,99.0,9.26,LK,1735933185.0
174,Urangan,-25.3,152.9,76.51,65.0,100.0,20.02,AU,1735933186.0
175,Kourou,5.1552,-52.6478,78.8,91.0,100.0,8.59,GF,1735933187.0
176,Pyt-Yakh,60.7499,72.8582,12.43,97.0,93.0,5.66,RU,1735933189.0
177,Kirakira,-10.4544,161.9205,79.27,82.0,100.0,2.17,SB,1735933190.0
178,Cadale,2.7603,46.3222,77.54,84.0,35.0,23.13,SO,1735933191.0
179,Northam,51.0333,-4.2167,32.81,87.0,98.0,1.01,GB,1735933192.0
180,City of San Pedro,14.35,121.0167,78.03,98.0,100.0,2.3,PH,1735933193.0
181,Sabzawār,36.2126,57.6819,35.28,56.0,100.0,3.67,IR,1735933194.0
182,Alpena,45.0617,-83.4327,25.12,65.0,100.0,13.8,US,1735933196.0
183,Dunedin,-45.8742,170.5036,55.33,67.0,32.0,15.64,NZ,1735933197.0
184,Port Hueneme,34.1478,-119.1951,67.46,70.0,0.0,5.01,US,1735933198.0
185,Yaren,-0.5472,166.916,81.86,77.0,100.0,12.68,NR,1735933199.0
186,Mogocha,53.7333,119.7667,-24.7,98.0,33.0,2.42,RU,1735933200.0
187,Arteche,12.2645,125.4048,77.05,90.0,41.0,4.43,PH,1735933201.0
188,Chakwal,32.9334,72.8585,49.78,61.0,1.0,1.48,PK,1735933202.0
189,Tilisarao,-32.7329,-65.2911,92.77,19.0,2.0,7.9,AR,1735933203.0
190,Bengkulu,-3.8004,102.2655,75.56,88.0,63.0,4.05,ID,1735933205.0
191,Flying Fish Cove,-10.4217,105.6791,76.68,94.0,100.0,3.44,CX,1735933206.0
192,Brande,55.9381,9.1218,26.76,59.0,33.0,10.69,DK,1735933207.0
193,General Acha,-37.377,-64.6043,94.89,15.0,2.0,10.22,AR,1735933208.0
194,Ust-Nera,64.5667,143.2,-14.71,91.0,100.0,2.13,RU,1735933209.0
195,I-n-Salah,27.1935,2.4607,56.46,45.0,0.0,11.27,DZ,1735933210.0
196,Tura,25.5198,90.2201,57.96,71.0,3.0,3.53,IN,1735933211.0
197,Shihezi,44.3,86.0333,11.59,83.0,5.0,4.34,CN,1735933212.0
198,Pleasanton,37.6624,-121.8747,55.85,93.0,100.0,5.75,US,1735933032.0
199,,,,,,,,,
200,Vilyuysk,63.7553,121.6247,-43.46,96.0,19.0,5.32,RU,1735933215.0
201,Constanța,44.1833,28.65,41.68,66.0,100.0,8.12,RO,1735933217.0
202,Amga,60.8953,131.9608,-56.49,100.0,89.0,1.23,RU,1735933218.0
203,Laghouat,33.8,2.8651,48.51,56.0,19.0,6.33,DZ,1735933219.0
204,Espoo,60.25,24.6667,17.73,93.0,99.0,1.72,FI,1735933220.0
205,Vorgashor,67.5833,63.95,-11.16,98.0,48.0,3.85,RU,1735933221.0
206,Galveston,29.3669,-94.9669,69.06,76.0,75.0,14.97,US,1735933222.0
207,Pacocha,-17.5833,-71.3333,71.74,64.0,0.0,8.05,PE,1735933223.0
208,Lagoa,39.05,-27.9833,62.29,91.0,23.0,24.58,PT,1735933224.0
209,Businga,3.3333,20.8833,76.62,35.0,98.0,0.81,CD,1735933225.0
210,Longyearbyen,78.2186,15.6401,22.84,86.0,75.0,2.3,SJ,1735933227.0
211,Trondheim,63.4305,10.3951,25.0,85.0,100.0,1.99,NO,1735933228.0
212,,,,,,,,,
213,Cole Harbour,44.6724,-63.4751,33.28,72.0,97.0,16.11,CA,1735933230.0
214,Santa Catarina,-27.0,-50.0,89.87,30.0,1.0,5.3,BR,1735933231.0
215,Neryungri,56.6709,124.6491,-53.97,99.0,55.0,0.81,RU,1735933233.0
216,Vielha e Mijaran,42.6846,0.7726,30.99,99.0,100.0,3.0,ES,1735933234.0
217,Laguna,38.421,-121.4238,51.98,93.0,100.0,9.22,US,1735933235.0
218,Vozhega,60.4725,40.2213,16.16,96.0,98.0,7.72,RU,1735933236.0
219,Wej,26.2455,36.4525,64.35,42.0,0.0,5.75,SA,1735933237.0
220,Holualoa,19.6228,-155.9522,75.83,74.0,0.0,9.22,US,1735933238.0
221,Belmonte,-15.8631,-38.8828,81.25,70.0,27.0,11.5,BR,1735933240.0
222,Hamilton,39.1834,-84.5333,29.77,64.0,75.0,19.57,US,1735933241.0
223,Bend,44.0582,-121.3153,36.05,97.0,100.0,1.01,US,1735933242.0
224,,,,,,,,,
225,Hīt,33.6416,42.8251,49.41,38.0,0.0,5.26,IQ,1735933244.0
226,Muroto-misakicho,33.2833,134.15,43.25,54.0,0.0,13.91,JP,1735933245.0
227,Usakos,-22.0,15.6,70.09,52.0,100.0,4.27,NA,1735933246.0
228,,,,,,,,,
229,San Patricio,28.017,-97.5169,71.55,63.0,74.0,6.17,US,1735933249.0
230,Beipiao,41.7919,120.7792,18.39,37.0,0.0,1.57,CN,1735933250.0
231,Sandnessjøen,66.0217,12.6316,33.91,64.0,40.0,13.8,NO,1735933251.0
232,Micheweni,-4.9667,39.8333,81.36,77.0,11.0,12.55,TZ,1735933252.0
233,Mesquite,32.7668,-96.5992,63.25,58.0,0.0,8.05,US,1735933168.0
234,Uray,60.1247,64.7758,8.87,95.0,30.0,5.73,RU,1735933254.0
235,Margate,51.3813,1.3862,34.88,70.0,100.0,10.07,GB,1735932989.0
236,Geraldton,-28.7667,114.6,66.61,82.0,100.0,6.91,AU,1735933256.0
237,Nuuk,64.1835,-51.7216,32.61,100.0,75.0,17.27,GL,1735933230.0
238,Paracale,14.2804,122.7881,75.69,92.0,100.0,2.64,PH,1735933258.0
239,Port Mathurin,-19.6833,63.4167,78.48,74.0,7.0,17.34,MU,1735933260.0
240,Port Macquarie,-31.4333,152.9167,65.07,99.0,100.0,1.01,AU,1735933261.0
241,North Haven,41.3909,-72.8595,37.81,55.0,100.0,12.66,US,1735933262.0
242,Olinda,-8.0089,-34.8553,83.93,70.0,75.0,11.5,BR,1735932977.0
243,Kill Devil Hills,36.0307,-75.676,48.97,48.0,40.0,13.8,US,1735933137.0
244,Wajir,1.7471,40.0573,84.78,41.0,8.0,8.05,KE,1735933265.0
245,Tsévié,6.4261,1.2133,83.28,73.0,100.0,9.13,TG,1735933267.0
246,Kuanda,56.3161,116.0806,-13.5,98.0,97.0,1.03,RU,1735933268.0
247,Kharkhorin,47.1975,102.8238,6.91,79.0,7.0,5.48,MN,1735933269.0
248,Nevel'sk,46.6733,141.8633,18.55,76.0,100.0,14.03,RU,1735933270.0
249,San Andrés,12.5847,-81.7006,80.31,79.0,26.0,15.7,CO,1735933240.0
250,Pandan,14.0453,124.1694,76.66,92.0,85.0,5.01,PH,1735933272.0
251,Savanna-la-Mar,18.219,-78.1332,75.92,64.0,100.0,8.43,JM,1735933273.0
252,Springs,-26.25,28.4,71.67,92.0,38.0,5.88,ZA,1735933274.0
253,La Sarre,48.8002,-79.1996,4.93,93.0,100.0,13.85,CA,1735933275.0
254,Peniche,39.3558,-9.3811,53.56,86.0,85.0,11.97,PT,1735933276.0
255,Orapa,-21.2833,25.3667,71.6,86.0,100.0,16.49,BW,1735933278.0
256,Victorica,-36.2151,-65.4359,95.18,16.0,0.0,1.99,AR,1735933279.0
257,Kingston,17.997,-76.7936,83.35,74.0,75.0,8.05,JM,1735933280.0
258,,,,,,,,,
259,Pyapon,16.2833,95.6833,68.32,75.0,3.0,4.14,MM,1735933282.0
260,,,,,,,,,
261,Itacoatiara,-3.1431,-58.4442,90.48,51.0,73.0,6.26,BR,1735933284.0
262,Monastyryshche,48.9909,29.8047,28.63,88.0,44.0,6.33,UA,1735933285.0
263,Mortyq,50.7475,56.5056,24.3,93.0,24.0,8.48,KZ,1735933286.0
264,Bria,6.5423,21.9863,77.05,25.0,57.0,3.38,CF,1735933288.0
265,Florø,61.5996,5.0328,30.16,86.0,100.0,11.5,NO,1735933289.0
266,Mogador,31.5125,-9.77,62.1,59.0,20.0,1.14,MA,1735933290.0
267,Reggane,26.7158,0.1714,57.87,41.0,0.0,9.64,DZ,1735933291.0
268,Kibre Mengist,5.8833,38.9833,55.42,47.0,29.0,2.04,ET,1735933292.0
269,Oil City,41.4339,-79.7064,27.07,87.0,100.0,1.01,US,1735933070.0
270,Dompu,-8.5356,118.4622,73.96,100.0,100.0,2.19,ID,1735933294.0
271,Guerrero Negro,27.9769,-114.0611,68.61,43.0,96.0,11.52,MX,1735933272.0
272,Kurlovo,55.4325,40.4854,19.78,97.0,14.0,1.79,RU,1735933296.0
273,Letlhakane,-21.4167,25.5833,71.28,86.0,100.0,13.91,BW,1735933298.0
274,Kailua-Kona,19.6406,-155.9956,79.56,74.0,0.0,9.22,US,1735933299.0
275,Haiku-Pauwela,20.9219,-156.3051,76.23,69.0,0.0,1.99,US,1735933130.0
276,,,,,,,,,
277,Prince Rupert,54.3161,-130.3201,37.09,65.0,94.0,18.41,CA,1735933302.0
278,Inírida,3.8653,-67.9239,88.41,57.0,99.0,0.51,CO,1735933303.0
279,Tinajo,29.0788,-13.7081,61.68,48.0,0.0,3.44,ES,1735933304.0
280,Sukhobezvodnoye,57.0491,44.8891,4.33,100.0,76.0,3.42,RU,1735933305.0
281,East London,-33.0153,27.9116,77.49,95.0,30.0,11.07,ZA,1735933306.0
282,Iskateley,67.6803,53.1512,12.69,96.0,100.0,6.49,RU,1735933307.0
283,,,,,,,,,
284,Bonthe,7.5264,-12.505,80.15,78.0,22.0,7.9,SL,1735933310.0
285,Katsuura,35.1333,140.3,44.15,85.0,99.0,17.83,JP,1735933311.0
286,Mukachevo,48.4419,22.7179,30.97,85.0,80.0,4.88,UA,1735933312.0
287,Ambodifotatra,-16.9833,49.85,81.1,70.0,23.0,8.23,MG,1735933313.0
288,Shingū,33.7333,135.9833,37.17,67.0,6.0,6.82,JP,1735933314.0
289,San Antonio de Palé,-1.4014,5.6325,81.19,80.0,98.0,5.5,GQ,1735933315.0
290,Corona de Tucson,31.9654,-110.7756,78.84,8.0,100.0,4.09,US,1735933316.0
291,Jayrūd,33.8074,36.7404,43.93,64.0,1.0,3.91,SY,1735933317.0
292,Mount Isa,-20.7333,139.5,83.97,39.0,70.0,9.22,AU,1735933319.0
293,Idrinskoye,54.3708,92.1358,13.77,95.0,100.0,4.36,RU,1735933320.0
294,Severobaykal'sk,55.65,109.3167,10.02,80.0,100.0,3.71,RU,1735933321.0
295,Yatou,37.15,122.3833,26.55,45.0,0.0,3.13,CN,1735933322.0
296,Mānikpur,25.0667,81.1167,55.72,40.0,0.0,4.09,IN,1735933323.0
297,,,,,,,,,
298,Port Lincoln,-34.7333,135.8667,72.39,49.0,100.0,9.86,AU,1735933325.0
299,Lake Albert,-35.1667,147.3833,68.86,75.0,0.0,1.99,AU,1735933326.0
300,Swakopmund,-22.6833,14.5333,64.6,92.0,100.0,5.03,NA,1735933327.0
301,Lüderitz,-26.6481,15.1594,63.25,92.0,29.0,8.32,NA,1735933328.0
302,Pacific Grove,36.6177,-121.9166,57.65,92.0,100.0,4.61,US,1735933330.0
303,Eraan,9.0629,117.7016,77.54,89.0,19.0,2.68,PH,1735933331.0
304,Puerto San José,13.9256,-90.8244,87.85,61.0,0.0,6.91,GT,1735933332.0
305,Dwārka,22.2394,68.9678,70.47,57.0,0.0,12.03,IN,1735933333.0
306,Xigazê,29.25,88.8833,28.26,28.0,0.0,2.24,CN,1735933334.0
307,Ingeniero Jacobacci,-41.3427,-69.5448,86.43,20.0,83.0,9.66,AR,1735933335.0
308,Tralee,52.2704,-9.7026,34.45,86.0,100.0,3.2,IE,1735933336.0
309,Ýpsonas,34.6884,32.9574,52.77,76.0,0.0,2.3,CY,1735933337.0
310,San Juan,-31.5375,-68.5364,96.89,20.0,1.0,5.82,AR,1735933201.0
311,Kogalym,62.2654,74.4791,8.73,96.0,100.0,8.16,RU,1735933339.0
312,Kristiansund,63.1115,7.732,34.12,93.0,75.0,16.11,NO,1735933341.0
313,Broken Hill,-31.95,141.4333,76.86,15.0,0.0,9.35,AU,1735933342.0
314,Coquimbo,-29.9533,-71.3436,71.98,57.0,40.0,12.66,CL,1735933343.0
315,,,,,,,,,
316,Wenling,28.3669,121.36,43.59,77.0,42.0,7.16,CN,1735933345.0
317,Kapuskasing,49.4169,-82.4331,1.49,85.0,100.0,17.27,CA,1735933346.0
318,Ocean Shores,46.9737,-124.1563,46.02,94.0,100.0,11.5,US,1735933347.0
319,Kofu,35.6639,138.5683,29.32,73.0,0.0,3.62,JP,1735933349.0
320,Thunder Bay,48.4001,-89.3168,8.58,56.0,75.0,16.11,CA,1735933074.0
321,Boali,4.8005,18.1275,80.44,20.0,90.0,2.86,CF,1735933351.0
322,Dahab,28.501,34.5134,65.97,29.0,44.0,10.54,EG,1735933352.0
323,Lensk,60.7253,114.9278,-12.03,100.0,99.0,2.77,RU,1735933353.0
324,Rāwatbhāta,24.9333,75.5833,63.34,33.0,0.0,2.68,IN,1735933354.0
325,Minas de Marcona,-15.2119,-75.1103,71.62,60.0,82.0,10.98,PE,1735933355.0
326,Xining,36.6167,101.7667,17.65,76.0,100.0,3.51,CN,1735933356.0
327,Khandyga,62.6667,135.6,-42.39,96.0,100.0,2.1,RU,1735933357.0
328,Phang Nga,8.4509,98.5298,71.78,91.0,93.0,3.8,TH,1735933359.0
329,Chibougamau,49.9168,-74.3659,4.62,78.0,100.0,16.11,CA,1735933168.0
330,Plaza Huincul,-38.926,-69.2086,92.01,15.0,0.0,11.18,AR,1735933361.0
331,Mangai,-4.05,19.5333,70.2,99.0,98.0,1.03,CD,1735933362.0
332,,,,,,,,,
333,Grand Falls-Windsor,48.9332,-55.6649,34.5,86.0,89.0,3.0,CA,1735933230.0
334,Bridlington,54.0831,-0.1919,33.21,72.0,0.0,1.99,GB,1735933365.0
335,Sainte-Suzanne,-20.9061,55.6089,75.38,69.0,0.0,3.44,RE,1735933366.0
336,Acaraú,-2.8856,-40.12,83.91,71.0,62.0,16.98,BR,1735933367.0
337,Launceston,-41.45,147.1667,49.64,87.0,15.0,0.0,AU,1735933368.0
338,Tondano,1.3038,124.9112,66.22,100.0,100.0,1.81,ID,1735933370.0
339,Santa Terezinha,-29.9002,-50.0904,75.97,61.0,16.0,16.08,BR,1735933371.0
340,Greymouth,-42.4667,171.2,60.17,60.0,2.0,5.21,NZ,1735933372.0
341,,,,,,,,,
342,Waingapu,-9.6567,120.2641,78.06,75.0,100.0,3.53,ID,1735933374.0
343,Chonchi,-42.6128,-73.8092,71.67,57.0,41.0,1.19,CL,1735933375.0
344,Vallenar,-28.5708,-70.7581,84.78,24.0,43.0,12.1,CL,1735933376.0
345,Nuku'alofa,-21.1333,-175.2,77.34,88.0,40.0,0.0,TO,1735933377.0
346,Coruripe,-10.1256,-36.1756,81.95,65.0,8.0,12.15,BR,1735933379.0
347,Harnai,30.1005,67.9374,48.94,66.0,82.0,7.76,PK,1735933380.0
348,Al Jawf,29.5,38.75,47.71,34.0,8.0,9.19,SA,1735933381.0
349,Angoche,-16.2325,39.9086,80.89,84.0,98.0,8.7,MZ,1735933382.0
350,Tazovsky,67.4667,78.7,-2.92,99.0,97.0,8.43,RU,1735933383.0
351,Dawei,14.0833,98.2,68.29,61.0,5.0,8.21,MM,1735933384.0
352,Paradip,20.3167,86.6167,62.19,53.0,33.0,6.06,IN,1735933385.0
353,Nchelenge,-9.3451,28.734,70.5,90.0,100.0,6.35,ZM,1735933386.0
354,Fort Bragg,35.139,-79.006,54.91,34.0,0.0,11.5,US,1735933388.0
355,Mossamedes,-15.1961,12.1522,70.66,75.0,100.0,8.05,AO,1735933389.0
356,St. John's,47.5649,-52.7093,40.39,82.0,20.0,11.5,CA,1735933390.0
357,,,,,,,,,
358,Kochi,9.9399,76.2602,72.91,73.0,29.0,5.01,IN,1735933392.0
359,Kaifeng,34.7911,114.3483,34.59,54.0,0.0,5.55,CN,1735933243.0
360,Blagoveshchenka,52.8333,79.8667,30.4,97.0,100.0,17.72,RU,1735933394.0
361,Okhotsk,59.3833,143.3,9.5,85.0,100.0,20.92,RU,1735933395.0
362,Koné,-21.0595,164.8658,79.74,72.0,27.0,4.23,NC,1735933396.0
363,,,,,,,,,
364,Orland,39.7474,-122.1964,52.86,95.0,100.0,13.27,US,1735933361.0
365,Berdyans'k,46.7503,36.7944,44.44,87.0,100.0,18.34,UA,1735933400.0
366,Tshabong,-26.05,22.45,79.21,61.0,97.0,18.86,BW,1735933401.0
367,Sur,22.5667,59.5289,68.18,51.0,0.0,14.7,OM,1735933402.0
368,Tannum Sands,-23.9504,151.3693,73.74,73.0,20.0,10.36,AU,1735933403.0
369,Gebeit,21.0667,36.3167,58.77,59.0,0.0,7.45,SD,1735933404.0
370,Arqalyk,50.2486,66.9114,26.89,98.0,91.0,19.84,KZ,1735933405.0
371,Shevchenko,48.5,35.0,36.21,96.0,100.0,6.4,UA,1735933406.0
372,Maintirano,-18.0667,44.0167,83.35,76.0,100.0,4.99,MG,1735933407.0
373,San Sebastián de La Gomera,28.0916,-17.1133,66.56,63.0,20.0,4.61,ES,1735933197.0
374,Tarawa,1.419,172.984,80.69,83.0,75.0,4.61,KI,1735933409.0
375,Cidreira,-30.1811,-50.2056,75.61,58.0,7.0,13.94,BR,1735933411.0
376,Ancud,-41.8697,-73.8203,63.91,78.0,60.0,7.56,CL,1735933139.0
377,,,,,,,,,
378,Isangel,-19.55,169.2667,79.92,82.0,31.0,7.14,VU,1735933414.0
379,Chamdo,31.1667,97.2333,24.39,33.0,41.0,1.43,CN,1735933415.0
380,Sumbawa Besar,-8.5,117.4333,72.68,96.0,98.0,1.83,ID,1735933307.0
381,Gonābād,34.3529,58.6837,34.02,58.0,62.0,5.28,IR,1735933417.0
382,Bel Ombre,-4.6167,55.4167,80.44,89.0,75.0,14.97,SC,1735933418.0
383,Arkhangelsk,64.5401,40.5433,12.31,92.0,100.0,8.95,RU,1735933419.0
384,Al Burayqah,30.4062,19.5739,62.87,44.0,100.0,18.34,LY,1735933420.0
385,Canyon Lake,29.8752,-98.2625,64.44,85.0,97.0,5.99,US,1735933374.0
386,Strelka,58.0728,93.0344,13.51,96.0,100.0,5.97,RU,1735933423.0
387,Olyokminsk,60.3736,120.4264,-51.61,100.0,59.0,1.34,RU,1735933424.0
388,Katsuren-haebaru,26.3369,127.8719,61.09,61.0,99.0,16.4,JP,1735933425.0
389,Rio Grande,-32.035,-52.0986,77.58,47.0,0.0,13.65,BR,1735933426.0
390,Samarinda,-0.5,117.15,74.23,99.0,100.0,2.28,ID,1735933427.0
391,Mansfield,53.1333,-1.2,35.62,92.0,100.0,3.0,GB,1735933428.0
392,Hyesan,41.4017,128.1778,-1.12,93.0,1.0,1.36,KP,1735933429.0
393,Punta Arenas,-53.15,-70.9167,60.91,29.0,40.0,32.21,CL,1735933430.0
394,Kruisfontein,-34.0033,24.7314,68.92,98.0,22.0,1.39,ZA,1735933432.0
395,Rābigh,22.7986,39.0349,74.32,23.0,0.0,9.98,SA,1735933433.0
396,Esim,4.8699,-2.2405,81.03,81.0,68.0,8.86,GH,1735933434.0
397,Mar del Plata,-38.0023,-57.5575,66.22,75.0,75.0,13.8,AR,1735933322.0
398,Bay City,43.5945,-83.8889,28.62,63.0,100.0,17.27,US,1735933240.0
399,Águas Formosas,-17.0822,-40.9358,77.58,79.0,97.0,3.24,BR,1735933437.0
400,Bantogon,6.5333,124.0333,78.82,82.0,96.0,4.16,PH,1735933438.0
401,Itamaracá,-7.7478,-34.8256,81.99,71.0,12.0,9.13,BR,1735933439.0
402,Mata-Utu,-13.2816,-176.1745,82.08,77.0,100.0,14.07,WF,1735933440.0
403,Weinan,34.5036,109.5089,35.89,44.0,49.0,2.8,CN,1735933441.0
404,Badger,64.8,-147.5333,-31.0,72.0,0.0,3.44,US,1735933443.0
405,Ceeldheer,3.8488,47.1806,76.48,77.0,10.0,22.68,SO,1735933444.0
406,Tromsø,69.6496,18.957,28.42,80.0,75.0,14.97,NO,1735933445.0
407,Taksimo,56.3444,114.8794,-8.16,98.0,100.0,0.87,RU,1735933446.0
408,Natal,-5.795,-35.2094,86.65,70.0,40.0,17.27,BR,1735933447.0
409,Kaa-Khem,51.6833,94.7333,-0.36,97.0,100.0,1.86,RU,1735933448.0
410,Cannonvale,-20.2833,148.7,78.19,82.0,100.0,15.17,AU,1735933449.0
411,Touros,-5.1989,-35.4608,82.42,74.0,26.0,14.85,BR,1735933450.0
412,Antsiranana,-12.2787,49.2917,75.56,88.0,53.0,7.29,MG,1735933451.0
413,Leava,-14.3,-178.1667,82.99,74.0,100.0,13.0,WF,1735933452.0
414,Pangai,-19.8,-174.35,82.51,69.0,75.0,5.75,TO,1735933453.0
415,Gazli,40.1333,63.45,37.49,73.0,99.0,4.76,UZ,1735933455.0
416,Okha,53.5739,142.9478,4.66,91.0,100.0,26.42,RU,1735933456.0
417,Labytnangi,66.6572,66.4183,-1.16,97.0,100.0,9.17,RU,1735933457.0
418,Nikolayevsk-on-Amur,53.1406,140.73,-2.99,98.0,100.0,7.34,RU,1735933458.0
419,Sola,-13.8833,167.55,81.07,79.0,97.0,5.21,VU,1735933459.0
420,Priob’ye,62.5206,65.5964,6.62,97.0,88.0,6.42,RU,1735933460.0
421,Mirny,62.5353,113.9611,-21.39,99.0,100.0,4.74,RU,1735933461.0
422,Blagoveshchensk,50.2667,127.5333,-21.39,76.0,20.0,2.24,RU,1735933462.0
423,Hafar Al-Batin,28.4328,45.9708,45.18,36.0,0.0,5.75,SA,1735933463.0
424,Bor,56.3567,44.0669,12.13,99.0,81.0,3.31,RU,1735933464.0
425,Banda Aceh,5.5577,95.3222,77.09,85.0,58.0,7.52,ID,1735933397.0
426,Archangelos,36.2149,28.1149,57.31,82.0,91.0,10.4,GR,1735933467.0
427,La Passe,45.5549,-0.8967,42.87,88.0,100.0,14.09,FR,1735933468.0
428,Futtsu,35.3053,139.8186,41.13,82.0,99.0,19.69,JP,1735933469.0
429,Aras-asan,8.8908,126.3033,77.32,87.0,61.0,2.57,PH,1735933470.0
430,Portage la Prairie,49.9728,-98.2926,-5.12,71.0,20.0,13.8,CA,1735933471.0
431,Basco,20.4487,121.9702,71.65,87.0,100.0,37.49,PH,1735933472.0
432,Goondiwindi,-28.55,150.3167,68.56,74.0,2.0,7.4,AU,1735933473.0
433,Nichinan,31.6,131.3667,33.71,57.0,1.0,5.23,JP,1735933474.0
434,,,,,,,,,
435,Mersing,2.4312,103.8405,80.51,83.0,20.0,10.36,MY,1735933477.0
436,Zinder,13.8072,8.9881,70.52,15.0,1.0,4.52,NE,1735933478.0
437,Dzhezkazgan,47.7833,67.7667,28.83,95.0,100.0,8.46,KZ,1735933479.0
438,Abbeville,50.1,1.8333,30.49,82.0,15.0,3.04,FR,1735933009.0
439,Tsiombe,-25.3,45.4833,78.12,82.0,0.0,16.06,MG,1735933481.0
440,Bobo-Dioulasso,11.1771,-4.2979,75.65,31.0,0.0,5.75,BF,1735933483.0
441,Tual,-5.6667,132.75,82.33,77.0,99.0,7.11,ID,1735933484.0
442,Creel,27.75,-107.6333,67.12,14.0,13.0,9.51,MX,1735933485.0
443,Labuan,5.2767,115.2417,79.16,100.0,40.0,0.0,MY,1735933486.0
444,Eldivan,40.5298,33.499,34.38,72.0,84.0,3.65,TR,1735933487.0
445,New Norfolk,-42.7826,147.0587,56.71,78.0,34.0,2.35,AU,1735933489.0
446,Baidoa,3.1138,43.6498,74.61,56.0,27.0,11.81,SO,1735933490.0
447,Kurchatov,51.6601,35.6521,29.97,79.0,99.0,4.56,RU,1735933491.0
448,Praia da Vitória,38.7333,-27.0667,64.65,82.0,75.0,18.39,PT,1735933492.0
449,Hotan,37.0997,79.9269,25.66,52.0,59.0,4.94,CN,1735933493.0
450,Cerro de Ortega,18.75,-103.7667,85.05,53.0,39.0,7.74,MX,1735933494.0
451,Iwanai,42.9744,140.5089,24.69,68.0,100.0,11.83,JP,1735933496.0
452,Makueni Boma,-1.8041,37.6203,62.24,83.0,100.0,4.85,KE,1735933497.0
453,Kyshtovka,56.555,76.6271,33.44,90.0,100.0,12.75,RU,1735933498.0
454,Nolensville,35.9523,-86.6694,43.05,52.0,40.0,23.02,US,1735933499.0
455,Baganga,7.5739,126.56,76.19,91.0,95.0,4.61,PH,1735933500.0
456,Arar,30.9753,41.0381,42.82,45.0,0.0,3.44,SA,1735933279.0
457,Aldama,22.9167,-98.0667,82.15,46.0,52.0,8.86,MX,1735933502.0
458,Manokwari,-0.8667,134.0833,78.21,77.0,100.0,4.76,ID,1735933503.0
459,Sijunjung,-0.6876,100.9537,70.5,92.0,91.0,1.92,ID,1735933504.0
460,Chita,52.0333,113.55,-22.11,76.0,20.0,2.24,RU,1735933506.0
461,Ubon Ratchathani,15.1667,105.1667,61.83,84.0,5.0,9.26,TH,1735933453.0
462,,,,,,,,,
463,Gaogou,34.0175,119.1886,35.46,68.0,100.0,5.66,CN,1735933509.0
464,Owando,-0.4819,15.8999,79.77,40.0,63.0,1.66,CG,1735933510.0
465,Gadzhiyevo,69.2551,33.3362,-0.62,100.0,87.0,9.48,RU,1735933511.0
466,Qui Nhon,13.7667,109.2333,69.76,85.0,100.0,15.37,VN,1735933512.0
467,Bonanza,14.0289,-84.591,74.25,93.0,46.0,5.99,NI,1735933513.0
468,Maitum,6.0392,124.4986,77.23,86.0,100.0,4.03,PH,1735933514.0
469,Buala,-8.145,159.5921,79.81,80.0,17.0,0.98,SB,1735933515.0
470,Torres,-29.3353,-49.7269,74.75,68.0,0.0,6.51,BR,1735933517.0
471,Gongzhuling,43.5008,124.8198,10.96,61.0,0.0,5.5,CN,1735933518.0
472,Miðvágur,62.0511,-7.1939,23.83,74.0,100.0,1.14,FO,1735933519.0
473,Arrondissement de Gap,44.6667,6.0,8.8,76.0,100.0,5.84,FR,1735933520.0
474,Polyarny,69.1989,33.4478,-0.24,100.0,78.0,10.0,RU,1735933521.0
475,Porto-Novo,6.4965,2.6036,84.02,80.0,100.0,9.84,BJ,1735933348.0
476,Choibalsan,48.0667,114.5,7.43,53.0,11.0,5.23,MN,1735933523.0
477,Vernon,50.2581,-119.2691,33.75,87.0,100.0,4.0,CA,1735933260.0
478,Acapulco de Juárez,16.8634,-99.8901,84.02,70.0,20.0,5.75,MX,1735933506.0
479,Queenstown,-31.8976,26.8753,72.73,71.0,33.0,3.58,ZA,1735933526.0
480,Lospalos,-8.5186,127.0025,73.17,89.0,94.0,0.56,TL,1735933528.0
481,Fort St. John,56.2499,-120.8529,-11.31,77.0,75.0,8.05,CA,1735933355.0
482,Westport,41.1415,-73.3579,38.82,52.0,75.0,16.11,US,1735933314.0
483,Gaigeturi,33.4644,126.3183,44.65,53.0,75.0,10.36,KR,1735933531.0
484,Jiuquan,39.7432,98.5174,23.31,50.0,100.0,2.48,CN,1735933532.0
485,Shakhun'ya,57.6758,46.6114,7.05,98.0,61.0,4.03,RU,1735933533.0
486,Kujang-ŭp,39.8672,126.0303,19.44,46.0,0.0,3.04,KP,1735933534.0
487,Happy Valley-Goose Bay,53.3168,-60.3315,37.71,93.0,75.0,6.91,CA,1735933535.0
488,Keflavik,64.0049,-22.5624,34.23,93.0,100.0,6.91,IS,1735933536.0
489,Sopur,34.3,74.4667,33.44,87.0,100.0,1.72,IN,1735933537.0
490,,,,,,,,,
491,Usogorsk,63.4106,48.6872,1.26,96.0,88.0,8.14,RU,1735933507.0
492,Weyburn,49.6668,-103.8511,-18.18,76.0,27.0,6.91,CA,1735933541.0
493,Neftçala,39.3742,49.2472,50.31,81.0,59.0,8.5,AZ,1735933542.0
494,Parabel',58.6978,81.4825,13.95,96.0,90.0,6.22,RU,1735933543.0
495,Teluk Anson,4.0259,101.0213,73.45,95.0,6.0,2.19,MY,1735933544.0
496,Nesebar,42.7833,27.7333,40.08,70.0,100.0,5.21,BG,1735933545.0
497,San Fernando,15.0286,120.6898,76.73,96.0,100.0,2.73,PH,1735933546.0
498,Troitsko-Pechorsk,62.7084,56.1964,8.78,92.0,99.0,8.72,RU,1735933548.0
499,Ruteng,-8.6136,120.4721,63.5,97.0,100.0,1.72,ID,1735933549.0
500,Mâncio Lima,-7.6142,-72.8958,82.47,78.0,75.0,0.0,BR,1735933550.0
501,Krasnovishersk,60.4078,57.082,-6.88,100.0,100.0,3.04,RU,1735933551.0
502,Ndioum,16.5129,-14.6471,75.43,15.0,100.0,8.79,SN,1735933552.0
503,Suva,-18.1416,178.4415,76.48,94.0,75.0,2.3,FJ,1735933553.0
504,Phuthaditjhaba,-28.5242,28.8158,68.9,66.0,96.0,3.42,ZA,1735933554.0
505,Timbuktu,16.7735,-3.0074,65.57,16.0,1.0,11.68,ML,1735933555.0
506,Catherinas Lust,6.4,-57.6,82.02,75.0,100.0,9.15,GY,1735933556.0
507,Road Town,18.4167,-64.6167,82.44,65.0,40.0,9.22,VG,1735933558.0
508,Howrah,22.5892,88.3103,60.8,88.0,1.0,0.0,IN,1735933559.0
509,Birao,10.2849,22.7882,70.86,20.0,76.0,5.88,CF,1735933560.0
510,Zhuanghe,39.7008,122.9911,24.89,40.0,0.0,2.77,CN,1735933561.0
511,Crucecita,-28.95,-58.9833,95.88,15.0,97.0,10.11,AR,1735933562.0
512,Gunnison,38.7,-107.0673,2.25,87.0,28.0,0.81,US,1735933563.0
513,Newcastle West,52.4492,-9.0611,33.12,88.0,100.0,2.68,IE,1735933564.0
514,Camariñas,43.1311,-9.1817,57.92,93.0,100.0,26.87,ES,1735933532.0
515,Dudinka,69.4058,86.1778,-1.79,99.0,97.0,3.85,RU,1735933566.0
516,Gulf Breeze,30.3571,-87.1639,66.51,48.0,0.0,11.5,US,1735933568.0
517,Ra’s Bayrūt,33.9,35.4833,56.86,54.0,0.0,5.75,LB,1735933569.0
518,Distrikt Brokopondo,4.75,-55.1667,79.83,86.0,100.0,7.14,SR,1735933570.0
519,Mangaldai,26.4333,92.0333,57.87,66.0,0.0,4.41,IN,1735933571.0
520,Tarascon,43.8058,4.6603,41.9,74.0,100.0,23.78,FR,1735933572.0
521,Palmas,-10.2128,-48.3603,87.67,58.0,20.0,6.91,BR,1735933363.0
522,Petawawa,45.9001,-77.3328,13.78,71.0,100.0,4.0,CA,1735933574.0
523,Farah,32.5,62.5,32.25,80.0,68.0,1.32,AF,1735933575.0
524,Magadan,59.5667,150.8,11.43,75.0,78.0,16.24,RU,1735933577.0
525,Naryan-Mar,67.6713,53.087,12.6,96.0,100.0,6.49,RU,1735933318.0
526,Berezovyy,51.6667,135.7,-13.05,93.0,88.0,4.61,RU,1735933579.0
527,Eydhafushi,5.1033,73.0708,80.98,79.0,100.0,23.47,MV,1735933580.0
528,,,,,,,,,
529,Abhā,18.2164,42.5053,55.65,26.0,0.0,0.0,SA,1735933582.0
530,Paramonga,-10.6667,-77.8333,74.37,74.0,52.0,11.21,PE,1735933584.0
531,Bikenibeu Village,1.3673,173.1241,80.56,83.0,75.0,4.61,KI,1735933585.0
532,Bardai,11.65,7.2333,72.99,17.0,85.0,9.19,NG,1735933586.0
533,Dakhla,23.6848,-15.958,66.22,59.0,0.0,9.22,EH,1735933587.0
534,Celestún,20.8667,-90.4,80.04,52.0,33.0,17.74,MX,1735933588.0
535,Ilhabela,-23.7781,-45.3581,79.36,81.0,28.0,11.12,BR,1735933589.0
536,,,,,,,,,
537,Abilene,32.4487,-99.7331,48.42,93.0,100.0,3.44,US,1735933570.0
538,Santa Cruz de la Sierra,-17.8,-63.1667,91.45,62.0,75.0,18.41,BO,1735933321.0
539,Krasyliv,49.6519,26.9725,30.4,82.0,81.0,11.83,UA,1735933593.0
540,Ālbū Kamāl,34.45,40.9186,48.02,40.0,0.0,3.87,SY,1735933595.0
541,Kerikeri,-35.2268,173.9474,63.68,63.0,14.0,11.86,NZ,1735933596.0
542,Correntina,-13.3433,-44.6367,83.8,59.0,97.0,1.03,BR,1735933597.0
543,Changli,39.7042,119.1506,24.53,32.0,9.0,5.08,CN,1735933598.0
544,March,52.5513,0.0883,35.02,84.0,10.0,5.44,GB,1735933599.0
545,Lusaka,-15.4067,28.2871,63.55,95.0,100.0,2.82,ZM,1735933600.0
546,Mugia,43.1041,-9.2179,57.9,94.0,100.0,27.34,ES,1735933601.0
547,,,,,,,,,
548,Alibag,18.6411,72.8792,74.43,54.0,85.0,6.17,IN,1735933603.0
549,Arrondissement du Havre,49.5833,0.3333,33.57,80.0,0.0,4.61,FR,1735933604.0
550,Pierre,44.3683,-100.351,14.92,79.0,100.0,8.05,US,1735933606.0
551,Carmi,38.0909,-88.1587,34.21,39.0,87.0,15.9,US,1735933607.0
552,Pamanukan,-6.2842,107.8106,77.49,88.0,100.0,3.49,ID,1735933608.0
553,Pangkalanbuun,-2.6833,111.6167,73.96,99.0,100.0,1.92,ID,1735933609.0
554,Mogadishu,2.0371,45.3438,77.63,82.0,16.0,22.97,SO,1735933393.0
555,Tarko-Sale,64.9225,77.785,2.08,97.0,93.0,8.12,RU,1735933358.0
556,Crane,31.3974,-102.3501,66.61,40.0,1.0,15.52,US,1735933612.0
557,Metlili Chaamba,32.2667,3.6333,52.2,43.0,0.0,6.64,DZ,1735933613.0
558,Usinsk,65.9939,57.5281,14.25,95.0,100.0,12.19,RU,1735933614.0
559,Nieuw Amsterdam,5.8833,-55.0833,86.02,70.0,40.0,4.61,SR,1735933615.0
560,Luwuk,-0.9516,122.7875,72.54,90.0,100.0,3.65,ID,1735933617.0
561,Battagram,34.6772,73.0233,53.8,35.0,100.0,4.18,PK,1735933618.0
562,Khairpur Tamewah,29.5811,72.2364,58.62,23.0,0.0,4.92,PK,1735933619.0
563,Dickinson,29.4608,-95.0513,70.02,74.0,75.0,11.5,US,1735933620.0
564,Sabang,5.8933,95.3214,82.2,74.0,38.0,11.79,ID,1735933621.0
565,Manaus,-3.1019,-60.025,84.7,84.0,40.0,5.75,BR,1735933336.0
566,Santo Antônio do Içá,-3.1022,-67.9397,89.44,53.0,78.0,2.06,BR,1735933623.0
567,Warrenton,-28.114,24.8475,79.99,48.0,1.0,8.3,ZA,1735933624.0
568,Tingo María,-9.2895,-76.0088,79.11,73.0,100.0,8.05,PE,1735933567.0
569,Mamou,10.5,-12.0,74.1,26.0,0.0,3.31,GN,1735933626.0
570,Yuzhno-Kurilsk,44.0306,145.8556,22.73,82.0,100.0,13.69,RU,1735933628.0
571,Blenheim,-41.516,173.9528,54.52,96.0,100.0,5.95,NZ,1735933261.0
572,Ciudad Melchor Múzquiz,27.8833,-101.5167,68.74,54.0,85.0,7.43,MX,1735933630.0
573,Kalevala,65.2,31.1667,-6.34,100.0,88.0,2.06,RU,1735933631.0
574,Camrose,53.0168,-112.8353,-6.83,95.0,76.0,11.61,CA,1735933632.0
575,Saldarriaga,20.6289,-100.2893,66.42,39.0,20.0,13.8,MX,1735933633.0
576,São João del Rei,-21.1356,-44.2617,71.87,85.0,75.0,8.48,BR,1735933634.0
577,Zhalantun,48.0,122.7167,-16.02,99.0,11.0,3.65,CN,1735933635.0
578,Zouérat,22.7187,-12.4521,59.54,27.0,2.0,9.17,MR,1735933636.0
579,At-Bashi,41.1702,75.8106,13.98,69.0,5.0,5.08,KG,1735933637.0
580,Yaiza,28.9633,-13.7631,60.57,48.0,0.0,3.44,ES,1735933638.0
581,Sesheke,-17.4759,24.2968,73.15,82.0,100.0,4.97,ZM,1735933640.0
582,Kasongo,-4.45,26.6667,70.39,93.0,100.0,1.45,CD,1735933641.0
583,Gunjur,13.2019,-16.7339,78.87,36.0,12.0,4.61,GM,1735933642.0
584,Kayyerkan,69.3786,87.7439,2.12,96.0,98.0,4.0,RU,1735933643.0
585,Gazojak,41.1875,61.4036,34.21,76.0,44.0,6.64,TM,1735933644.0
586,Ironwood,46.4547,-90.171,7.61,78.0,100.0,14.97,US,1735933645.0
587,Avesta,60.1455,16.1679,17.06,72.0,2.0,7.61,SE,1735933646.0
588,Bundaberg North,-24.8551,152.3425,71.82,74.0,82.0,10.96,AU,1735933647.0
589,Shenjiamen,29.9576,122.298,47.1,65.0,42.0,7.07,CN,1735933648.0
590,Mejit,10.2753,170.8646,80.55,77.0,100.0,18.66,MH,1735933650.0
591,Jiménez,28.3333,-105.4,75.87,16.0,6.0,7.81,MX,1735933651.0
592,Tocopilla,-22.092,-70.1979,73.72,63.0,94.0,5.01,CL,1735933652.0
593,Hithadhoo,-0.6,73.0833,82.36,76.0,51.0,15.35,MV,1735933653.0
594,Caniço,32.6333,-16.85,67.01,88.0,40.0,18.41,PT,1735933654.0
595,Manismata,-2.4667,111.0333,74.59,98.0,100.0,2.86,ID,1735933655.0
596,Riohacha,11.5444,-72.9072,89.71,62.0,40.0,16.11,CO,1735933656.0
597,Saint-Pierre,-21.3393,55.4781,76.68,61.0,0.0,4.61,RE,1735933657.0
598,Alofi,-19.0595,-169.9187,84.09,74.0,75.0,8.05,NU,1735933658.0
599,Aljustrel,37.8776,-8.1652,49.93,89.0,95.0,4.16,PT,1735933660.0
600,Viale,-31.8678,-60.0072,96.49,15.0,0.0,17.2,AR,1735933661.0
601,Taesal-li,36.9714,126.4542,34.77,58.0,11.0,10.96,KR,1735933662.0
602,Moab,38.5733,-109.5498,49.5,35.0,100.0,2.19,US,1735933663.0
603,Palmer,42.1584,-72.3287,35.55,41.0,75.0,17.27,US,1735933664.0
604,Callao,-12.0667,-77.15,73.69,73.0,0.0,13.8,PE,1735933592.0
605,Kamenka,51.3223,42.7678,34.29,94.0,100.0,10.6,RU,1735933666.0
606,Posto da Mata,-17.8848,-39.8536,86.77,57.0,100.0,5.5,BR,1735933667.0
607,Mungwi,-10.1732,31.3694,63.3,92.0,100.0,1.3,ZM,1735933668.0
608,Afaahiti,-17.75,-149.2833,80.53,74.0,100.0,22.19,PF,1735933669.0
609,Taitung City,22.7583,121.1444,60.78,80.0,69.0,14.12,TW,1735933671.0
610,Wawarsing,41.759,-74.3574,34.45,64.0,99.0,10.78,US,1735933408.0
611,Itaituba,-4.2761,-55.9836,89.76,66.0,20.0,5.75,BR,1735933673.0
612,Sant Antoni de Portmany,38.9807,1.3036,58.08,79.0,0.0,8.05,ES,1735933674.0
613,Cockburn Town,21.4612,-71.1419,78.76,78.0,40.0,11.5,TC,1735933675.0
614,,,,,,,,,
615,San Antonio Oeste,-40.7319,-64.9477,69.98,53.0,7.0,16.22,AR,1735933677.0
616,Bilāsipāra,26.232,90.2347,59.67,57.0,10.0,4.81,IN,1735933678.0
617,Borogontsy,62.6683,131.1683,-55.73,100.0,69.0,2.8,RU,1735933679.0
618,Jwaneng,-24.6004,24.7303,72.61,70.0,86.0,7.65,BW,1735933681.0
619,Qaraūyl,48.9451,79.255,21.13,86.0,13.0,18.88,KZ,1735933682.0
620,Port Douglas,-16.4833,145.4667,78.57,82.0,67.0,3.6,AU,1735933683.0
621,Elliot Lake,46.3834,-82.6331,16.47,54.0,81.0,9.26,CA,1735933684.0
622,Ghat,24.9647,10.1728,51.67,56.0,0.0,16.91,LY,1735933685.0
623,Chui,-33.6971,-53.4616,76.14,47.0,21.0,15.59,UY,1735933686.0
